,City,Lat,Lng,Max Temp,Humidity,Cloudiness,Wind Speed,Country,Date
0,sokolo,14.73,-6.12,76.62,18,0,11.61,ML,1609800410
1,ust-tsilma,65.44,52.15,-7.35,90,24,4.23,RU,1609800410
2,bud,39.45,-86.18,39.99,80,12,2.86,US,1609800410
3,sioux lookout,50.1,-91.92,30.2,86,75,5.82,CA,1609800410
4,castro,-24.79,-50.01,64.98,85,94,3.65,BR,1609800410
5,mana,5.66,-53.78,77.74,84,45,7.29,GF,1609800410
6,busselton,-33.65,115.33,63.0,75,0,5.01,AU,1609800410
7,yumen,40.28,97.2,7.21,78,0,10.42,CN,1609800410
8,kahului,20.89,-156.47,82.4,54,40,11.41,US,1609800410
9,siatista,40.26,21.54,39.2,100,93,2.24,GR,1609800245
10,sitka,57.05,-135.33,42.8,60,75,9.17,US,1609800134
11,hermanus,-34.42,19.23,71.01,86,39,1.01,ZA,1609800410
12,sao joao da barra,-21.64,-41.05,76.33,87,100,18.75,BR,1609800333
13,new norfolk,-42.78,147.06,66.0,60,68,1.99,AU,1609800410
14,rancho palos verdes,33.74,-118.39,61.0,84,0,4.0,US,1609800175
15,bauchi,10.5,10.0,72.72,23,0,3.85,NG,1609800410
16,codrington,-38.27,141.97,57.92,85,99,15.93,AU,1609800411
17,punta arenas,-53.15,-70.92,53.6,58,0,13.87,CL,1609800329
18,yellowknife,62.46,-114.35,-20.0,75,20,9.17,CA,1609800147
19,kodiak,57.79,-152.41,33.8,100,90,5.82,US,1609800411
20,east london,-33.02,27.91,76.64,65,99,6.51,ZA,1609800411
21,kavieng,-2.57,150.8,84.99,72,100,13.27,PG,1609800411
22,xam nua,20.42,104.04,48.4,93,65,1.57,LA,1609800411
23,kamyzyak,46.11,48.07,19.4,85,0,11.18,RU,1609800128
24,butaritari,3.07,172.79,81.63,79,3,18.66,KI,1609800128
25,petropavlovsk-kamchatskiy,53.05,158.65,14.0,85,40,2.24,RU,1609800209
26,bengkulu,-3.8,102.27,77.54,82,88,4.83,ID,1609800411
27,pevek,69.7,170.31,-20.2,88,90,5.99,RU,1609800411
28,atuona,-9.8,-139.03,77.95,78,52,15.82,PF,1609800411
29,baruun-urt,46.68,113.28,-20.92,83,89,4.9,MN,1609800411
30,san cristobal,7.77,-72.22,77.0,83,40,4.7,VE,1609800411
31,ulaangom,49.98,92.07,-25.78,77,22,0.31,MN,1609800133
32,airai,-8.93,125.41,64.67,100,99,1.45,TL,1609800411
33,tuktoyaktuk,69.45,-133.04,-20.2,75,40,5.82,CA,1609800138
34,saint-philippe,-21.36,55.77,77.0,73,90,4.7,RE,1609800411
35,puerto ayora,-0.74,-90.35,86.0,55,0,10.29,EC,1609800412
36,ponta do sol,32.67,-17.1,62.01,82,20,5.82,PT,1609800412
37,chernaya kholunitsa,58.85,51.72,18.5,98,94,4.41,RU,1609800412
38,gayny,60.31,54.32,11.91,96,80,5.68,RU,1609800412
39,albany,42.6,-73.97,34.0,85,95,2.71,US,1609800171
40,norman wells,65.28,-126.83,-14.8,75,20,11.41,CA,1609800412
41,qaanaaq,77.48,-69.36,-5.62,76,13,4.38,GL,1609800412
42,sinnamary,5.38,-52.95,78.08,85,56,8.95,GF,1609800412
43,saldanha,-33.01,17.94,66.2,82,1,9.17,ZA,1609800113
44,tasiilaq,65.61,-37.64,21.2,48,99,6.93,GL,1609800412
45,kapaa,22.08,-159.32,78.8,69,20,9.17,US,1609800144
46,lebu,-37.62,-73.65,57.42,72,0,22.97,CL,1609800412
47,mataura,-46.19,168.86,55.99,93,100,1.01,NZ,1609800412
48,goundam,16.41,-3.67,75.06,18,0,11.1,ML,1609800412
49,ushuaia,-54.8,-68.3,53.6,54,40,21.92,AR,1609800226
50,jamestown,42.1,-79.24,34.0,99,90,3.36,US,1609800336
51,barrow,71.29,-156.79,-9.4,69,40,3.36,US,1609800412
52,encruzilhada do sul,-30.54,-52.52,70.97,72,100,8.68,BR,1609800412
53,rikitea,-23.12,-134.97,76.84,77,66,18.34,PF,1609800119
54,lalibela,12.03,39.03,50.67,53,0,2.37,ET,1609800412
55,hobart,-42.88,147.33,66.99,72,75,2.24,AU,1609800412
56,holme,56.11,10.17,35.6,91,99,11.41,DK,1609800412
57,klaksvik,62.23,-6.59,41.0,100,97,9.51,FO,1609800412
58,verkhovazhye,60.75,42.05,11.3,96,65,3.11,RU,1609800412
59,hilo,19.73,-155.09,78.8,74,90,6.93,US,1609800413
60,kuminskiy,58.67,66.57,-7.82,89,100,6.38,RU,1609800413
61,beregovoy,55.17,73.22,-18.4,68,100,6.71,RU,1609800413
62,milledgeville,33.08,-83.23,59.0,41,1,9.17,US,1609800413
63,independence,39.09,-94.42,42.8,70,1,9.17,US,1609800291
64,srednekolymsk,67.45,153.68,-27.6,85,89,6.04,RU,1609800129
65,port elizabeth,-33.92,25.57,71.6,94,40,4.7,ZA,1609800126
66,ambilobe,-13.2,49.05,73.65,89,28,1.12,MG,1609800413
67,touros,-5.2,-35.46,80.6,78,40,13.87,BR,1609800413
68,omidiyeh,30.76,49.7,55.4,82,0,4.59,IR,1609800413
69,bay roberts,47.6,-53.26,33.01,33,46,4.0,CA,1609800413
70,port alfred,-33.59,26.89,71.01,94,82,1.01,ZA,1609800413
71,duki,30.15,68.57,43.81,64,18,4.03,PK,1609800413
72,kaeo,-35.1,173.78,73.94,55,0,6.11,NZ,1609800413
73,basoko,1.24,23.62,73.44,88,80,3.42,CD,1609800413
74,mayo,38.89,-76.51,43.0,86,90,2.28,US,1609800176
75,bredasdorp,-34.53,20.04,69.8,83,57,6.93,ZA,1609800413
76,hithadhoo,-0.6,73.08,82.72,75,100,13.44,MV,1609800239
77,bridlington,54.08,-0.19,39.2,64,100,18.34,GB,1609800413
78,rawson,-43.3,-65.1,60.98,54,0,18.88,AR,1609800413
79,dandong,40.13,124.39,6.94,70,0,9.01,CN,1609800413
80,batagay-alyta,67.8,130.41,-24.88,83,53,1.36,RU,1609800413
81,bluff,-46.6,168.33,55.99,93,100,1.01,NZ,1609800413
82,san policarpo,12.18,125.51,81.45,74,100,13.22,PH,1609800413
83,torbay,47.67,-52.73,33.01,100,90,14.99,CA,1609800413
84,chuy,-33.7,-53.46,71.58,82,97,13.15,UY,1609800141
85,ancud,-41.87,-73.82,64.4,45,0,10.29,CL,1609800131
86,popondetta,-8.75,148.25,86.34,59,100,2.35,PG,1609800414
87,dmitriyevka,54.75,55.33,15.8,92,90,6.71,RU,1609800414
88,georgetown,5.41,100.34,79.0,88,20,3.36,MY,1609800414
89,anadyr,64.75,177.48,-5.8,70,0,13.42,RU,1609800414
90,mar del plata,-38.0,-57.56,70.0,88,90,11.41,AR,1609800126
91,mahalapye,-23.1,26.81,72.28,57,3,8.28,BW,1609800414
92,te anau,-45.42,167.72,53.06,90,100,2.15,NZ,1609800414
93,upernavik,72.79,-56.15,15.84,81,100,8.03,GL,1609800414
94,namatanai,-3.67,152.43,84.52,66,92,8.79,PG,1609800414
95,bambous virieux,-20.34,57.76,77.0,88,40,8.05,MU,1609800142
96,nemuro,43.32,145.57,18.95,88,0,13.4,JP,1609800195
97,vardo,70.37,31.11,30.2,86,75,11.41,NO,1609800414
98,provideniya,64.38,-173.3,-3.89,85,0,11.95,RU,1609800414
99,baoning,25.34,110.03,37.4,93,0,3.71,CN,1609800414
100,arraial do cabo,-22.97,-42.03,77.0,88,0,6.93,BR,1609800415
101,talnakh,69.49,88.4,-11.2,76,90,22.37,RU,1609800401
102,severo-kurilsk,50.68,156.12,20.41,91,88,17.54,RU,1609800178
103,golubitskaya,45.32,37.28,44.6,52,99,15.66,RU,1609800415
104,maceio,-9.67,-35.74,77.0,83,75,1.12,BR,1609800415
105,thompson,55.74,-97.86,3.2,77,90,8.05,CA,1609800415
106,vaini,-21.2,-175.2,82.4,88,75,12.75,TO,1609800415
107,cape town,-33.93,18.42,70.0,88,20,16.11,ZA,1609800382
108,malindi,-3.22,40.12,77.74,83,35,11.61,KE,1609800415
109,itarema,-2.92,-39.92,79.57,79,100,13.51,BR,1609800186
110,urumqi,43.8,87.6,-13.0,83,75,2.24,CN,1609800415
111,mount isa,-20.73,139.5,86.0,58,63,6.93,AU,1609800182
112,los llanos de aridane,28.66,-17.92,69.8,64,75,5.82,ES,1609800415
113,chambas,22.19,-78.91,78.8,69,40,8.05,CU,1609800415
114,dikson,73.51,80.55,-5.75,91,100,24.25,RU,1609800127
115,nizhniy odes,63.64,54.86,0.82,93,82,6.38,RU,1609800415
116,avera,33.19,-82.53,53.6,58,1,4.7,US,1609800415
117,mikhaylovskoye,51.82,79.72,-17.73,87,39,5.79,RU,1609800415
118,kolbermoor,47.85,12.07,30.0,88,89,2.28,DE,1609800415
119,cabo san lucas,22.89,-109.91,75.99,49,5,4.7,MX,1609800242
120,berdigestyakh,62.1,126.7,-40.52,80,99,3.98,RU,1609800415
121,poum,-20.23,164.02,81.86,82,90,8.72,NC,1609800152
122,quatre cocos,-20.21,57.76,77.0,88,40,8.05,MU,1609800415
123,utete,-7.99,38.76,73.26,97,20,1.32,TZ,1609800416
124,muros,42.78,-9.06,34.0,95,5,7.43,ES,1609800416
125,vestmannaeyjar,63.44,-20.27,41.76,72,99,14.23,IS,1609800416
126,salaga,8.55,-0.52,85.5,36,0,2.59,GH,1609800416
127,pisco,-13.7,-76.22,75.2,73,0,20.8,PE,1609800416
128,mattru,7.62,-11.83,76.3,91,59,1.68,SL,1609800416
129,ilulissat,69.22,-51.1,14.45,95,100,8.16,GL,1609800416
130,bull savanna,17.89,-77.59,74.1,74,2,10.04,JM,1609800416
131,coolum beach,-26.53,153.1,82.99,79,100,1.81,AU,1609800416
132,bartica,6.4,-58.62,77.0,94,40,6.93,GY,1609800416
133,naze,28.37,129.48,64.4,100,75,12.75,JP,1609800416
134,bombay,19.01,72.85,75.2,60,40,6.93,IN,1609800389
135,tiksi,71.69,128.87,-8.48,90,96,9.69,RU,1609800119
136,ahipara,-35.17,173.17,73.22,57,1,3.38,NZ,1609800417
137,brigantine,39.41,-74.36,41.0,86,90,6.93,US,1609800417
138,abonnema,4.71,6.79,77.0,83,20,6.38,NG,1609800417
139,willowmore,-33.29,23.49,69.4,75,91,8.03,ZA,1609800417
140,portland,45.52,-122.68,51.8,71,75,9.17,US,1609800265
141,isla vista,34.41,-119.86,70.0,52,40,3.36,US,1609800177
142,coihaique,-45.58,-72.07,71.6,26,0,8.05,CL,1609800417
143,nyirbeltek,47.7,22.13,44.6,93,75,5.82,HU,1609800417
144,la ronge,55.1,-105.28,10.4,78,1,3.36,CA,1609800417
145,ngunguru,-35.62,174.5,68.77,68,0,7.11,NZ,1609800417
146,hirara,24.8,125.28,68.0,94,75,18.34,JP,1609800417
147,bereda,43.27,-7.54,32.0,100,5,1.99,ES,1609800417
148,jalu,29.03,21.55,58.01,71,87,15.35,LY,1609800417
149,abu zabad,12.35,29.25,69.96,31,1,10.98,SD,1609800417
150,zhongxing,33.7,118.68,32.09,95,100,11.23,CN,1609800417
151,jijiga,9.35,42.8,57.15,45,5,7.07,ET,1609800417
152,ville-marie,47.33,-79.43,30.2,86,90,13.87,CA,1609800417
153,kaitangata,-46.28,169.85,60.01,81,100,1.99,NZ,1609800418
154,victoria,22.29,114.16,64.0,62,93,5.01,HK,1609800343
155,bar harbor,44.39,-68.2,32.0,92,90,11.41,US,1609800418
156,faanui,-16.48,-151.75,80.49,78,100,16.75,PF,1609800418
157,katsuura,35.13,140.3,42.01,65,75,5.82,JP,1609800254
158,esperance,-33.87,121.9,60.8,63,90,10.29,AU,1609800418
159,hofn,64.25,-15.21,36.88,75,100,5.53,IS,1609800418
160,ames,42.03,-93.62,37.4,74,1,12.75,US,1609800418
161,hueyapan,18.87,-98.67,84.2,26,40,5.82,MX,1609800418
162,faro,37.02,-7.93,44.6,100,0,7.4,PT,1609800418
163,zbarazh,49.66,25.78,42.48,88,100,17.78,UA,1609800418
164,grindavik,63.84,-22.43,35.6,93,75,13.87,IS,1609800418
165,hambantota,6.12,81.12,73.4,100,90,4.7,LK,1609800418
166,prokudskoye,55.01,82.46,-27.4,67,0,4.47,RU,1609800418
167,west bay,19.37,-81.42,80.6,61,40,6.93,KY,1609800418
168,bondo,3.81,23.69,71.53,67,93,2.33,CD,1609800418
169,inuvik,68.35,-133.72,-16.6,75,96,6.93,CA,1609800267
170,adrar,20.5,-10.07,67.53,34,98,7.45,MR,1609800418
171,sorong,-0.88,131.25,80.13,82,90,4.52,ID,1609800418
172,ananas,19.25,-71.96,78.8,65,20,6.93,HT,1609800418
173,narsaq,60.92,-46.05,26.6,68,98,8.5,GL,1609800132
174,uruzgan,32.83,66.0,31.06,85,36,6.64,AF,1609800418
175,guerrero negro,27.98,-114.06,67.37,43,32,14.5,MX,1609800418
176,hit,33.64,42.83,52.03,45,52,10.16,IQ,1609800418
177,yatou,37.15,122.38,23.41,91,43,9.66,CN,1609800419
178,turbat,26.0,63.04,50.97,32,0,10.49,PK,1609800419
179,davila,18.47,120.58,69.8,94,20,2.24,PH,1609800419
180,ust-maya,60.42,134.53,-38.07,81,100,1.72,RU,1609800419
181,kariba,-16.52,28.8,71.37,81,44,4.47,ZW,1609800419
182,bongandanga,1.5,21.05,72.45,92,100,2.06,CD,1609800419
183,dingle,11.0,122.67,76.86,91,100,8.23,PH,1609800419
184,aiquile,-18.2,-65.18,62.17,81,88,7.58,BO,1609800419
185,cherskiy,68.75,161.3,-30.62,85,100,4.41,RU,1609800419
186,aktau,43.65,51.2,15.8,72,0,11.18,KZ,1609800419
187,darhan,49.49,105.92,-15.25,85,100,4.25,MN,1609800419
188,sola,-13.88,167.55,83.3,75,100,8.28,VU,1609800419
189,negombo,7.21,79.84,73.4,100,40,2.24,LK,1609800419
190,kashi,39.45,75.98,17.6,92,90,4.47,CN,1609800419
191,bethel,41.37,-73.41,35.6,80,90,3.36,US,1609800419
192,pervomayskiy,53.25,40.29,30.0,84,100,8.75,RU,1609800419
193,atbasar,51.8,68.33,-6.34,87,100,8.05,KZ,1609800420
194,cidreira,-30.18,-50.21,74.34,73,69,19.37,BR,1609800420
195,namie,37.48,141.0,30.99,88,89,9.46,JP,1609800208
196,westport,41.14,-73.36,39.2,69,1,4.7,US,1609800306
197,along,28.17,94.77,48.7,53,42,1.63,IN,1609800420
198,troitskoye,52.98,84.68,-18.42,87,0,6.49,RU,1609800420
199,jablah,35.36,35.93,60.8,31,0,2.24,SY,1609800420
200,broken hill,-31.95,141.43,64.4,59,0,12.75,AU,1609800420
201,clyde river,70.47,-68.59,-18.4,75,5,17.22,CA,1609800420
202,lewistown,40.6,-77.57,37.4,100,90,1.1,US,1609800420
203,wote,-1.78,37.63,62.38,90,91,3.96,KE,1609800420
204,fairbanks,64.84,-147.72,-11.0,76,40,1.12,US,1609800246
205,tura,25.52,90.22,60.03,68,64,1.99,IN,1609800420
206,rabo de peixe,37.8,-25.58,59.0,93,20,16.11,PT,1609800420
207,piacabucu,-10.41,-36.43,78.06,79,3,12.33,BR,1609800420
208,zhuanghe,39.7,122.99,6.01,48,0,8.46,CN,1609800420
209,okha,53.57,142.95,-7.92,89,100,21.36,RU,1609800133
210,saskylakh,71.92,114.08,2.12,92,94,14.05,RU,1609800421
211,honolulu,21.31,-157.86,82.4,51,40,12.75,US,1609800300
212,sistranda,63.73,8.83,26.6,86,20,17.22,NO,1609800421
213,gariaband,20.64,82.06,59.95,54,100,2.44,IN,1609800421
214,lagoa,39.05,-27.98,61.38,83,99,27.2,PT,1609800421
215,chengdu,30.67,104.07,39.2,100,86,2.57,CN,1609800399
216,belyy yar,53.6,91.39,-18.4,82,40,2.59,RU,1609800142
217,pinega,64.7,43.39,4.03,94,96,3.2,RU,1609800201
218,riyadh,24.69,46.72,59.0,58,40,3.36,SA,1609800405
219,barreirinhas,-2.75,-42.83,79.12,79,85,7.43,BR,1609800200
220,champagnole,46.74,5.91,28.99,91,100,3.0,FR,1609800421
221,shimoda,34.67,138.95,50.74,47,96,18.45,JP,1609800421
222,santa rosa,14.31,121.11,77.0,88,20,8.32,PH,1609800421
223,khatanga,71.97,102.5,-10.05,87,37,14.54,RU,1609800421
224,sisimiut,66.94,-53.67,15.84,95,100,8.08,GL,1609800421
225,harper,4.38,-7.72,78.89,82,39,6.64,LR,1609800421
226,zanjan,36.67,48.48,22.51,92,49,3.96,IR,1609800421
227,beloha,-25.17,45.05,72.84,77,59,2.95,MG,1609800421
228,puerto madryn,-42.77,-65.04,63.37,46,0,19.22,AR,1609800397
229,biak,-0.91,122.88,78.8,78,76,4.68,ID,1609800421
230,maldonado,-34.67,-54.92,77.0,78,75,20.8,UY,1609800421
231,lasa,46.62,10.7,33.01,92,5,2.04,IT,1609800422
232,shingu,33.73,135.98,42.08,63,100,3.31,JP,1609800422
233,daru,-9.08,143.21,81.05,81,100,7.94,PG,1609800422
234,chokurdakh,70.63,147.92,-29.04,85,12,10.6,RU,1609800422
235,luderitz,-26.65,15.16,69.8,77,12,4.7,NA,1609800422
236,moissala,8.34,17.77,75.4,20,0,3.53,TD,1609800422
237,hanmer springs,-42.52,172.82,72.68,33,71,3.29,NZ,1609800422
238,salalah,17.02,54.09,71.6,35,0,8.05,OM,1609800422
239,cayenne,4.93,-52.33,77.0,94,68,11.41,GF,1609800423
240,verkhnevilyuysk,63.45,120.32,-35.75,81,92,5.1,RU,1609800423
241,rajula,21.05,71.43,63.28,43,2,13.47,IN,1609800423
242,taguatinga,-12.39,-46.57,76.8,73,79,2.15,BR,1609800423
243,kieta,-6.22,155.63,86.52,58,71,1.63,PG,1609800423
244,ridgecrest,35.62,-117.67,63.0,25,20,8.05,US,1609800423
245,alofi,-19.06,-169.92,84.2,79,40,6.93,NU,1609800423
246,korla,41.76,86.15,12.07,83,0,2.71,CN,1609800423
247,soyo,-6.13,12.37,78.58,88,99,7.43,AO,1609800423
248,brandon,27.94,-82.29,64.4,42,1,5.82,US,1609800206
249,krivosheino,57.34,83.93,-24.99,86,8,3.06,RU,1609800423
250,hamilton,39.18,-84.53,41.0,75,33,1.61,US,1609800367
251,nelson bay,-32.72,152.15,75.0,83,2,8.05,AU,1609800423
252,swarzedz,52.41,17.09,34.0,94,90,6.93,PL,1609800423
253,carballo,43.21,-8.69,39.0,100,75,3.36,ES,1609800423
254,filadelfia,39.95,-75.16,43.0,70,90,4.7,US,1609800246
255,kushima,31.46,131.23,44.6,87,75,4.7,JP,1609800423
256,longyearbyen,78.22,15.64,30.2,92,90,34.45,SJ,1609800423
257,keningau,5.34,116.16,75.2,94,20,2.24,MY,1609800423
258,mogadishu,2.04,45.34,77.09,75,95,21.77,SO,1609800134
259,vila franca do campo,37.72,-25.43,59.0,93,20,16.11,PT,1609800423
260,minatitlan,17.98,-94.52,75.2,88,90,6.93,MX,1609800423
261,el alto,-4.27,-81.21,78.8,65,0,11.41,PE,1609800424
262,zhigansk,66.77,123.37,-39.05,80,45,7.16,RU,1609800424
263,sumbe,-11.21,13.84,76.28,85,43,6.87,AO,1609800424
264,santa maria,-29.68,-53.81,86.0,55,40,5.82,BR,1609800292
265,dubbo,-32.25,148.62,68.0,94,75,1.12,AU,1609800364
266,port moresby,-9.44,147.18,82.4,78,20,5.82,PG,1609800424
267,beba,22.44,-79.73,78.8,65,20,10.29,CU,1609800424
268,bubaque,11.28,-15.83,81.25,65,0,10.2,GW,1609800424
269,flinders,-34.58,150.86,77.0,79,26,4.0,AU,1609800424
270,buraydah,26.33,43.98,57.2,100,75,11.41,SA,1609800136
271,azanka,58.04,64.79,-4.77,91,100,6.38,RU,1609800424
272,saint-augustin,51.23,-58.65,19.18,93,2,1.9,CA,1609800424
273,dundwaraganj,27.73,78.95,62.83,69,48,6.55,IN,1609800424
274,renqiu,38.7,116.09,13.77,66,19,3.09,CN,1609800424
275,ukiah,39.15,-123.21,55.4,62,75,13.87,US,1609800424
276,jardim,-21.48,-56.14,72.23,96,100,3.31,BR,1609800424
277,pangnirtung,66.15,-65.71,-9.4,76,90,11.41,CA,1609800424
278,dauphin,51.15,-100.05,24.57,95,0,10.49,CA,1609800424
279,nikolskoye,59.7,30.79,30.2,74,90,4.47,RU,1609800424
280,ribeira grande,38.52,-28.7,61.63,85,60,29.04,PT,1609800424
281,leningradskiy,69.38,178.42,-6.65,86,100,8.28,RU,1609800154
282,nola,40.92,14.53,46.0,93,0,3.36,IT,1609800425
283,brewster,41.4,-73.62,35.6,80,90,3.36,US,1609800315
284,paltinis,48.22,26.65,41.0,94,100,7.0,RO,1609800425
285,galesong,-5.32,119.37,77.0,94,20,3.36,ID,1609800425
286,homer,59.64,-151.55,28.99,79,90,4.7,US,1609800425
287,laguna,38.42,-121.42,57.2,87,90,11.41,US,1609800395
288,geraldton,-28.77,114.6,73.4,35,0,19.46,AU,1609800425
289,takaka,-40.85,172.8,70.0,64,55,7.0,NZ,1609800425
290,bukama,-9.2,25.85,69.33,95,100,2.91,CD,1609800425
291,porto novo,6.5,2.6,78.8,83,20,5.82,BJ,1609800425
292,otane,-39.88,176.63,83.53,35,31,2.26,NZ,1609800425
293,batagay,67.63,134.63,-40.54,77,25,3.29,RU,1609800425
294,lorengau,-2.02,147.27,84.61,71,80,12.8,PG,1609800425
295,shumskiy,54.83,99.13,-18.47,80,100,8.08,RU,1609800425
296,saint-raymond,45.47,-73.61,28.99,92,91,2.24,CA,1609800425
297,hagi,34.4,131.42,39.2,79,75,2.24,JP,1609800425
298,tomatlan,19.93,-105.25,83.12,45,0,6.55,MX,1609800426
299,manaus,-3.1,-60.02,80.6,78,40,3.36,BR,1609800426
300,collipulli,-37.95,-72.43,82.4,26,0,17.22,CL,1609800426
301,marsabit,2.33,37.99,66.72,65,86,7.61,KE,1609800426
302,sucre,-19.03,-65.26,55.4,87,90,13.87,BO,1609800426
303,langarud,37.2,50.15,46.17,75,98,2.51,IR,1609800128
304,tuatapere,-46.13,167.68,55.99,93,100,1.01,NZ,1609800426
305,obihiro,42.92,143.2,14.52,85,2,6.33,JP,1609800314
306,avarua,-21.21,-159.78,84.2,66,70,20.8,CK,1609800135
307,dzerzhinsk,56.24,43.46,28.0,100,90,4.47,RU,1609800426
308,hutchinson,38.06,-97.93,55.4,24,1,10.29,US,1609800426
309,constitucion,-35.33,-72.42,63.48,55,0,16.6,CL,1609800426
310,maltahohe,-24.83,16.98,70.25,63,74,11.12,NA,1609800426
311,talaja,21.35,72.05,64.13,52,10,11.88,IN,1609800333
312,lavrentiya,65.58,-171.0,-8.18,88,19,10.27,RU,1609800426
313,mount gambier,-37.83,140.77,57.2,71,90,16.11,AU,1609800426
314,bumba,2.18,22.47,73.87,84,100,2.04,CD,1609800313
315,yinchuan,38.47,106.27,11.37,71,0,4.25,CN,1609800426
316,sur,22.57,59.53,65.73,40,0,9.37,OM,1609800397
317,san jeronimo,-11.95,-75.28,53.42,74,100,6.58,PE,1609800427
318,coquimbo,-29.95,-71.34,64.4,72,40,9.17,CL,1609800167
319,manado,1.49,124.85,75.2,100,40,1.12,ID,1609800427
320,meadow lake,34.8,-106.54,53.01,29,20,4.7,US,1609800427
321,abashiri,44.02,144.27,15.03,92,65,11.54,JP,1609800160
322,ventspils,57.39,21.56,30.2,100,90,6.93,LV,1609800427
323,lao cai,22.48,103.95,52.75,82,88,0.85,VN,1609800427
324,port augusta,-32.5,137.77,66.0,72,75,17.22,AU,1609800427
325,nishihara,26.18,127.76,66.2,93,75,27.51,JP,1609800427
326,moerai,-22.43,-151.33,79.97,77,0,19.8,PF,1609800427
327,husavik,66.04,-17.34,39.2,60,20,21.92,IS,1609800427
328,havre-saint-pierre,50.23,-63.6,26.6,79,90,2.24,CA,1609800427
329,wamba,8.93,8.6,79.21,20,0,4.88,NG,1609800427
330,caucaia,-3.74,-38.65,82.4,78,20,9.17,BR,1609800427
331,kabalo,-6.05,26.92,69.62,95,83,1.52,CD,1609800427
332,sidi ali,36.1,0.42,44.85,79,35,9.6,DZ,1609800427
333,champerico,14.3,-91.92,89.6,62,20,9.17,GT,1609800427
334,panthersville,33.71,-84.27,57.2,51,40,8.05,US,1609800428
335,garowe,8.41,48.48,67.37,63,79,12.88,SO,1609800428
336,iqaluit,63.75,-68.51,-18.0,68,20,3.36,CA,1609800211
337,bilibino,68.05,166.44,-26.7,82,100,2.53,RU,1609800428
338,fortuna,40.6,-124.16,50.0,100,75,8.05,US,1609800132
339,markova,48.68,24.41,37.99,88,100,3.0,UA,1609800428
340,katy,29.79,-95.82,75.2,46,1,2.04,US,1609800249
341,shakhtinsk,49.71,72.59,-5.8,63,0,15.66,KZ,1609800428
342,menongue,-14.66,17.69,64.63,84,100,2.15,AO,1609800428
343,zambezi,-13.54,23.1,64.8,89,43,4.65,ZM,1609800428
344,fatsa,41.03,37.5,42.8,75,0,1.12,TR,1609800428
345,bulolo,-7.2,146.65,79.5,64,95,1.14,PG,1609800428
346,znamenskoye,57.13,73.83,-16.42,87,100,5.73,RU,1609800428
347,vanavara,60.34,102.28,-32.39,82,98,6.38,RU,1609800428
348,vangaindrano,-23.35,47.6,73.13,89,51,5.46,MG,1609800428
349,souillac,-20.52,57.52,75.2,88,40,8.05,MU,1609800428
350,coruripe,-10.13,-36.18,77.81,79,3,11.99,BR,1609800428
351,zhuhai,22.28,113.57,64.4,67,0,6.93,CN,1609800428
352,muyezerskiy,63.93,31.65,9.77,96,91,2.48,RU,1609800428
353,isangel,-19.55,169.27,84.2,83,75,8.05,VU,1609800428
354,kedrovyy,56.17,91.82,-25.6,74,0,4.61,RU,1609800428
355,baykit,61.67,96.37,-17.91,81,96,2.71,RU,1609800429
356,buchanan,5.88,-10.05,78.8,94,75,6.2,LR,1609800429
357,buzmeyin,38.05,58.21,28.4,92,90,2.24,TM,1609800429
358,swiecie,53.41,18.45,37.99,95,100,3.0,PL,1609800429
359,alamosa,37.47,-105.87,39.2,38,1,3.36,US,1609800429
360,mananara,-16.17,49.77,71.91,89,10,5.35,MG,1609800429
361,pavlodar,52.3,76.95,-29.2,66,0,6.71,KZ,1609800429
362,camana,-16.62,-72.71,72.05,71,6,4.81,PE,1609800429
363,atikokan,48.76,-91.62,32.04,96,100,8.19,CA,1609800429
364,cacheu,12.27,-16.17,75.2,69,0,2.24,GW,1609800429
365,campo grande,-20.44,-54.65,69.8,94,75,6.93,BR,1609800248
366,praia,14.92,-23.51,73.4,78,40,13.87,CV,1609800326
367,pombia,45.65,8.63,39.2,93,75,6.93,IT,1609800429
368,luan,46.36,6.98,32.0,92,0,2.51,CH,1609800429
369,sao filipe,14.9,-24.5,75.61,77,86,3.22,CV,1609800429
370,antalaha,-14.9,50.28,73.17,83,33,5.84,MG,1609800429
371,kiruna,67.86,20.23,14.0,92,37,6.93,SE,1609800429
372,snezhnogorsk,69.19,33.25,-5.8,83,40,2.24,RU,1609800429
373,launceston,-41.45,147.17,64.99,67,90,18.34,AU,1609800430
374,taoudenni,22.68,-3.98,66.72,22,42,6.35,ML,1609800430
375,namwala,-15.75,26.44,65.03,97,3,3.67,ZM,1609800430
376,nantucket,41.28,-70.1,39.99,93,90,19.46,US,1609800430
377,luwuk,-0.95,122.79,79.61,75,86,3.94,ID,1609800430
378,beringovskiy,63.05,179.32,-7.56,89,69,17.4,RU,1609800180
379,barraute,48.43,-77.63,26.6,100,90,11.41,CA,1609800430
380,fenoarivo,-18.93,47.44,60.8,93,20,3.36,MG,1609800430
381,erenhot,43.65,111.98,-6.02,81,0,12.28,CN,1609800430
382,brownsville,25.9,-97.5,80.6,51,20,11.41,US,1609800430
383,lloydminster,53.28,-110.0,24.8,62,20,4.7,CA,1609800422
384,moron,-34.65,-58.62,80.01,62,73,5.01,AR,1609800346
385,te karaka,-38.47,177.87,80.35,42,1,3.91,NZ,1609800430
386,hof,50.32,11.92,28.99,98,100,5.01,DE,1609800430
387,nanortalik,60.14,-45.24,27.21,95,99,8.3,GL,1609800431
388,matara,5.95,80.54,75.65,89,95,6.26,LK,1609800431
389,mahebourg,-20.41,57.7,75.2,88,40,8.05,MU,1609800374
390,pochutla,15.74,-96.47,84.2,62,40,4.45,MX,1609800431
391,siavonga,-16.54,28.71,75.25,74,43,5.19,ZM,1609800431
392,alcudia,39.85,3.12,39.99,86,0,4.7,ES,1609800431
393,port hardy,50.7,-127.42,48.2,61,75,4.7,CA,1609800431
394,port-gentil,-0.72,8.78,80.6,88,20,5.82,GA,1609800431
395,kalmunai,7.42,81.82,76.57,89,100,6.71,LK,1609800431
396,broome,42.25,-75.83,34.0,92,90,5.82,US,1609800192
397,aykhal,66.0,111.5,-11.2,83,90,6.71,RU,1609800431
398,san carlos del zulia,9.0,-71.91,75.85,81,28,2.17,VE,1609800431
399,nosy varika,-20.58,48.53,73.85,86,5,2.55,MG,1609800431
400,baykalsk,51.51,104.15,-13.22,87,100,14.76,RU,1609800431
401,drugovo,41.48,20.92,41.0,85,100,5.59,MK,1609800431
402,kodinsk,58.69,99.18,-31.05,80,70,3.31,RU,1609800431
403,burgeo,47.62,-57.62,29.48,93,100,11.52,CA,1609800431
404,mugla,37.23,28.36,64.4,59,75,20.8,TR,1609800432
405,verkhoyansk,67.54,133.38,-38.29,77,47,1.88,RU,1609800432
406,urengoy,65.97,78.37,-20.65,87,15,10.16,RU,1609800432
407,posse,-14.09,-46.37,70.16,86,98,2.95,BR,1609800432
408,lufilufi,-13.87,-171.6,87.8,79,40,3.36,WS,1609800432
409,revadanda,18.55,72.93,75.2,60,40,6.93,IN,1609800432
410,los palacios,22.59,-83.25,72.37,81,46,1.88,CU,1609800432
411,hameenlinna,61.0,24.46,24.01,92,90,4.7,FI,1609800432
412,bergama,39.12,27.18,53.6,93,40,14.99,TR,1609800295
413,imeni poliny osipenko,52.42,136.49,-18.26,88,100,1.88,RU,1609800432
414,punta alta,-38.88,-62.07,66.97,77,96,21.85,AR,1609800432
415,qasigiannguit,68.82,-51.19,14.22,94,100,3.69,GL,1609800432
416,kigoma,-4.88,29.63,72.32,79,35,2.37,TZ,1609800432
417,dolores hidalgo,21.16,-100.93,73.99,12,0,3.74,MX,1609800432
418,springdale,36.19,-94.13,51.8,61,1,9.17,US,1609800432
419,waddan,29.16,16.14,49.93,49,73,4.03,LY,1609800432
420,meulaboh,4.14,96.13,76.55,83,100,4.25,ID,1609800432
421,sao joao do piaui,-8.36,-42.25,82.99,54,54,1.95,BR,1609800384
422,la ferte-bernard,48.19,0.65,37.4,86,90,8.05,FR,1609800432
423,pitimbu,-7.47,-34.81,80.6,78,20,10.29,BR,1609800365
424,barra da estiva,-13.63,-41.33,69.6,67,11,2.15,BR,1609800199
425,pokhara,28.23,83.98,61.57,31,98,4.41,NP,1609800433
426,faya,18.39,42.45,55.4,93,0,3.36,SA,1609800433
427,haines junction,60.75,-137.51,10.89,91,100,2.71,CA,1609800433
428,noumea,-22.28,166.46,86.0,66,0,4.7,NC,1609800433
429,batemans bay,-35.72,150.18,73.99,79,99,1.99,AU,1609800433
430,novyy urengoy,66.08,76.63,-17.66,88,57,10.31,RU,1609800433
431,west wendover,40.74,-114.07,35.6,64,20,5.82,US,1609800433
432,the valley,18.22,-63.06,78.01,88,75,5.82,AI,1609800433
433,boa vista,2.82,-60.67,86.0,55,75,3.36,BR,1609800433
434,yar-sale,66.83,70.83,-16.15,87,26,13.62,RU,1609800433
435,lamont,35.26,-118.91,66.99,42,1,8.05,US,1609800298
436,ak-dovurak,51.18,90.6,-15.11,73,10,2.17,RU,1609800433
437,pijijiapan,15.7,-93.23,82.54,63,2,4.27,MX,1609800433
438,turukhansk,65.82,87.98,-20.76,88,100,5.01,RU,1609800433
439,sturgeon falls,46.36,-79.93,34.0,92,90,8.05,CA,1609800433
440,terrace bay,48.78,-87.1,33.8,80,90,8.05,CA,1609800433
441,itacoatiara,-3.14,-58.44,75.38,88,20,2.06,BR,1609800433
442,nicoya,10.15,-85.45,87.8,48,0,21.92,CR,1609800433
443,prieska,-29.66,22.75,67.55,83,100,4.18,ZA,1609800433
444,vikulovo,56.82,70.61,-10.61,87,100,10.25,RU,1609800433
445,abu dhabi,24.47,54.37,66.2,52,0,3.36,AE,1609800181
446,gigmoto,13.78,124.39,79.25,79,79,11.3,PH,1609800434
447,carnarvon,-24.87,113.63,66.2,100,6,5.82,AU,1609800434
448,acajutla,13.59,-89.83,81.57,72,42,5.64,SV,1609800224
449,iquique,-20.22,-70.14,75.2,57,0,17.22,CL,1609800434
450,felipe carrillo puerto,19.58,-88.05,77.11,74,33,3.29,MX,1609800434
451,coahuayana,18.73,-103.68,84.2,45,20,5.1,MX,1609800434
452,heinola,61.21,26.04,26.6,92,90,5.82,FI,1609800434
453,san patricio,28.02,-97.52,75.2,64,1,10.29,US,1609800434
454,khandyga,62.67,135.6,-50.33,76,90,0.58,RU,1609800155
455,payo,-3.75,103.64,74.28,96,97,2.33,ID,1609800434
456,abu kamal,34.45,40.92,49.89,48,73,2.75,SY,1609800434
457,saint george,37.1,-113.58,57.0,30,1,3.36,US,1609800434
458,osuna,37.24,-5.11,46.0,81,75,5.82,ES,1609800434
459,tahoua,14.89,5.27,75.65,18,0,5.41,NE,1609800434
460,pacific grove,36.62,-121.92,61.0,77,75,13.87,US,1609800180
461,cockburn town,21.46,-71.14,76.44,68,0,12.91,TC,1609800435
462,sakakah,29.97,40.21,53.6,76,20,8.05,SA,1609800435
463,huaidian,33.43,115.03,30.99,95,100,10.22,CN,1609800435
464,kharp,66.8,65.81,-24.52,85,91,4.41,RU,1609800435
465,kemalpasa,38.43,27.42,62.6,63,75,23.04,TR,1609800435
466,bandrele,-12.91,45.19,80.6,83,40,9.17,YT,1609800435
467,douglas,41.3,-96.17,44.6,56,1,8.05,US,1609800307
468,maragogi,-9.01,-35.22,77.34,79,21,9.1,BR,1609800289
469,loandjili,-4.76,11.86,77.58,91,89,4.83,CG,1609800435
470,vostok,46.49,135.88,-16.15,90,67,4.61,RU,1609800156
471,dongli,23.57,116.82,59.0,82,4,5.19,CN,1609800435
472,olhao,37.03,-7.84,44.6,100,0,7.31,PT,1609800435
473,ilhabela,-23.78,-45.36,75.27,83,89,4.54,BR,1609800435
474,halifax,44.65,-63.57,35.01,86,100,10.29,CA,1609800357
475,san juan,-31.54,-68.54,78.73,46,90,24.18,AR,1609800435
476,nome,64.5,-165.41,-0.4,54,1,10.29,US,1609800435
477,concepcion del uruguay,-32.48,-58.24,88.0,40,73,1.01,AR,1609800271
478,salinas,36.68,-121.66,60.8,87,90,4.7,US,1609800435
479,punta gorda,26.93,-82.05,69.8,40,1,4.7,US,1609800343
480,kolondieba,11.09,-6.89,76.68,23,29,3.15,ML,1609800435
481,rebrikha,53.07,82.34,-20.34,87,0,7.63,RU,1609800436
482,lithgow,-33.48,150.15,66.0,74,36,6.22,AU,1609800392
483,fenelon falls,44.53,-78.75,32.0,80,100,1.12,CA,1609800436
484,sayyan,15.17,44.32,43.18,72,0,3.38,YE,1609800436
485,campobasso,41.63,14.58,42.01,88,14,5.93,IT,1609800436
486,itapirapua,-15.82,-50.61,73.13,89,98,3.67,BR,1609800436
487,dibulla,11.27,-73.31,75.33,65,0,5.01,CO,1609800436
488,wenling,28.37,121.36,55.0,87,97,11.63,CN,1609800436
489,ponta delgada,37.73,-25.67,59.0,93,20,16.11,PT,1609800436
490,taga,46.95,24.05,39.2,100,90,3.2,RO,1609800436
491,conakry,9.54,-13.68,81.72,74,0,7.78,GN,1609800436
492,chipinge,-20.19,32.62,63.14,98,8,3.51,ZW,1609800436
493,kruisfontein,-34.0,24.73,72.0,90,99,0.29,ZA,1609800427
494,aquiraz,-3.9,-38.39,82.4,78,20,9.17,BR,1609800436
495,itacarambi,-15.1,-44.09,74.16,79,98,1.97,BR,1609800217
496,marsa matruh,31.35,27.25,62.6,77,98,13.87,EG,1609800436
497,margate,51.38,1.39,39.99,77,100,4.0,GB,1609800167
498,upata,8.01,-62.4,79.0,74,100,1.99,VE,1609800436
499,jimma,7.67,36.83,59.2,69,32,1.77,ET,1609800437
500,ust-barguzin,53.45,108.98,-8.1,89,100,3.71,RU,1609800437
501,brae,60.4,-1.35,39.2,69,94,5.82,GB,1609800437
502,bodden town,19.28,-81.25,80.6,61,40,6.93,KY,1609800437
503,gat,31.61,34.76,61.0,55,73,4.0,IL,1609800363
504,wainwright,52.84,-110.86,26.6,63,17,4.7,CA,1609800302
505,marsh harbour,26.54,-77.06,72.88,75,62,12.08,BS,1609800437
506,spearfish,44.49,-103.86,41.0,27,1,5.77,US,1609800437
507,valreas,44.38,4.99,34.0,100,90,3.36,FR,1609800437
508,pahalgam,34.03,75.33,30.72,88,100,4.74,IN,1609800437
509,nairobi,-1.28,36.82,55.99,85,99,8.01,KE,1609800303
510,abeche,13.83,20.83,76.05,18,0,15.43,TD,1609800437
511,yulara,-25.24,130.99,73.4,33,45,19.46,AU,1609800437
512,bom jesus da lapa,-13.26,-43.42,77.14,70,48,4.65,BR,1609800437
513,abu samrah,35.3,37.18,51.35,62,71,7.58,SY,1609800437
514,marawi,8.0,124.29,72.0,94,100,7.0,PH,1609800437
515,sorland,67.67,12.69,41.59,90,100,28.01,NO,1609800437
516,portobelo,9.55,-79.65,81.0,99,75,12.33,PA,1609800437
517,mbinga,-10.93,35.02,64.27,98,90,3.38,TZ,1609800437
518,cao bang,22.67,106.25,49.48,70,33,1.74,VN,1609800304
519,pafos,34.77,32.42,53.6,76,75,6.93,CY,1609800437
520,alice town,25.72,-79.3,71.24,69,73,8.48,BS,1609800437
521,auki,-8.77,160.7,86.43,56,31,2.44,SB,1609800437
522,khudumelapye,-23.88,24.75,73.33,60,75,5.84,BW,1609800437
523,mayahi,13.96,7.67,73.72,19,16,7.56,NE,1609800437
524,inverness,57.48,-4.22,34.0,92,75,2.95,GB,1609800438
525,marzuq,14.4,46.47,57.43,52,0,3.13,YE,1609800175
526,keti bandar,24.14,67.45,61.47,32,0,10.67,PK,1609800438
527,wajir,1.75,40.06,81.46,43,87,12.53,KE,1609800438
528,nadym,65.53,72.52,-15.86,88,34,10.6,RU,1609800438
529,shipunovo,52.16,82.22,-18.47,87,1,11.25,RU,1609800438
530,luena,-11.78,19.92,62.74,97,100,4.94,AO,1609800438
531,kabinda,-6.13,24.48,67.53,93,93,2.86,CD,1609800438
532,inhambane,-23.86,35.38,76.71,83,30,4.5,MZ,1609800438
533,zapolyarnyy,69.42,30.81,15.8,92,0,12.75,RU,1609800438
534,puerto escondido,15.85,-97.07,80.6,74,40,5.82,MX,1609800438
535,saint-leu,-21.15,55.28,77.0,73,90,4.7,RE,1609800438
536,durban,-29.86,31.03,73.99,94,75,1.12,ZA,1609800139
537,lata,40.16,-8.33,39.99,89,4,2.68,PT,1609800438
538,dourbali,11.81,15.86,76.77,19,0,9.44,TD,1609800438
539,pleszew,51.9,17.79,37.99,100,100,4.0,PL,1609800438
540,aklavik,68.22,-135.01,-16.6,75,99,6.93,CA,1609800438
541,roebourne,-20.78,117.13,88.16,35,89,12.86,AU,1609800438
542,bandarbeyla,9.49,50.81,72.81,69,20,15.95,SO,1609800438
543,awjilah,29.11,21.29,57.74,71,99,15.5,LY,1609800439
544,alihe,50.57,123.72,-17.5,83,34,2.86,CN,1609800439
545,zhezkazgan,47.8,67.71,-0.65,88,100,8.63,KZ,1609800439
546,sinnai,39.3,9.2,46.0,100,40,3.36,IT,1609800439
547,sambava,-14.27,50.17,74.23,83,6,5.35,MG,1609800161
548,dwarka,22.24,68.97,67.41,57,0,14.83,IN,1609800439
549,crotone,39.09,17.12,44.01,75,0,5.99,IT,1609800439
550,manta,-0.95,-80.73,86.0,58,40,4.7,EC,1609800439
551,bahia blanca,-38.72,-62.27,67.23,73,100,18.03,AR,1609800367
